City,Country,Lat,Lng,Max Temp,Humidity,Cloudiness,Wind Speed,Current Description
Abasha,GE,42.2096,42.2211,53.82,66,5,10.38,clear sky
Tiksi,RU,71.6872,128.8694,7.63,90,26,6.55,scattered clouds
Hermanus,ZA,-34.4187,19.2345,55.8,85,5,12.19,clear sky
Vaini,TO,-21.2,-175.2,84.36,79,75,5.75,broken clouds
Provideniya,RU,64.3833,-173.3,32.59,96,100,12.01,light snow
Yellowknife,CA,62.456,-114.3525,10.92,52,75,6.91,broken clouds
Puerto Ayora,EC,-0.7393,-90.3518,75.38,92,71,4.99,broken clouds
Krasnogorsk,RU,55.8225,37.3181,33.96,64,0,15.66,clear sky
Mandera,KE,3.9366,41.867,81.25,68,73,10.65,broken clouds
New Norfolk,AU,-42.7826,147.0587,78.89,37,100,3.0,overcast clouds
Hilo,US,19.7297,-155.09,72.28,92,100,5.75,moderate rain
Butaritari,KI,3.0707,172.7902,82.06,76,44,12.12,scattered clouds
Castro,BR,-24.7911,-50.0119,49.14,99,1,5.06,clear sky
Kamenka,RU,51.3223,42.7678,50.47,73,100,12.68,overcast clouds
Taltal,CL,-25.4,-70.4833,61.11,77,0,3.13,clear sky
Birjand,IR,32.8663,59.2211,63.07,45,40,4.61,dust
Gorontalo,ID,0.5412,123.0595,76.35,92,89,4.85,overcast clouds
Yumen,CN,40.2833,97.2,51.89,19,0,4.72,clear sky
Te Anau,NZ,-45.4167,167.7167,56.84,53,85,0.27,overcast clouds
Yangi Marg`ilon,UZ,40.4272,71.7189,66.92,34,90,4.61,overcast clouds
Mataura,NZ,-46.1927,168.8643,53.47,46,99,3.49,overcast clouds
Rikitea,PF,-23.1203,-134.9692,78.73,67,25,13.51,scattered clouds
Tuktoyaktuk,CA,69.4541,-133.0374,3.2,66,40,6.91,scattered clouds
São Félix do Xingu,BR,-6.6447,-51.995,71.51,99,92,0.87,overcast clouds
Bluff,NZ,-46.6,168.3333,53.8,58,86,7.96,overcast clouds
Vila Velha,BR,-20.3297,-40.2925,73.35,78,0,4.61,clear sky
Dikson,RU,73.5069,80.5464,8.13,90,100,15.1,light snow
Atuona,PF,-9.8,-139.0333,78.8,80,69,16.17,light rain
Port Alfred,ZA,-33.5906,26.891,58.17,94,92,10.38,overcast clouds
San Jose,US,37.3394,-121.895,55.99,69,20,12.66,few clouds
Mwinilunga,ZM,-11.7358,24.4293,62.44,98,100,3.62,overcast clouds
San Fernando,PH,15.0286,120.6898,87.53,48,68,8.52,broken clouds
Cabot,US,34.9745,-92.0165,61.86,64,100,17.27,overcast clouds
Khatanga,RU,71.9667,102.5,24.26,93,93,10.0,overcast clouds
Bethel,US,41.3712,-73.414,44.02,90,100,5.75,light rain
Lavrentiya,RU,65.5833,-171.0,31.48,93,100,9.8,overcast clouds
Ribeira Grande,PT,38.5167,-28.7,59.07,77,4,19.1,clear sky
Lat Yao,TH,15.751,99.7893,97.36,37,29,7.05,scattered clouds
Bredasdorp,ZA,-34.5322,20.0403,55.78,85,1,7.29,clear sky
Lagoa,PT,39.05,-27.9833,58.12,74,0,14.79,clear sky
Sharan,RU,54.8167,54.0,36.63,73,99,9.69,overcast clouds
Ponta do Sol,PT,32.6667,-17.1,68.63,44,100,8.9,overcast clouds
Caravelas,BR,-17.7125,-39.2481,77.0,73,100,10.4,overcast clouds
Laguna,US,38.421,-121.4238,60.78,64,0,10.36,clear sky
Tura,IN,25.5198,90.2201,79.99,71,5,7.81,clear sky
Tabuk,PH,17.4189,121.4443,85.12,61,58,6.49,broken clouds
Comodoro Rivadavia,AR,-45.8667,-67.5,42.66,81,0,2.3,clear sky
Longyearbyen,SJ,78.2186,15.6401,21.04,68,75,8.05,broken clouds
Kapaa,US,22.0752,-159.319,76.98,95,100,27.63,heavy intensity rain
Avarua,CK,-21.2078,-159.775,82.45,74,53,10.36,broken clouds
Christchurch,NZ,-43.5333,172.6333,58.91,75,100,13.8,overcast clouds
Qaanaaq,GL,77.484,-69.3632,-21.1,73,5,7.96,clear sky
Luanda,AO,-8.8368,13.2343,77.0,88,75,5.75,broken clouds
Yarensk,RU,62.1675,49.0916,29.57,76,17,3.89,few clouds
Talnakh,RU,69.4865,88.3972,14.61,93,98,16.64,overcast clouds
Barrow,US,71.2906,-156.7887,8.62,72,0,19.57,clear sky
Padang,ID,-0.9492,100.3543,87.85,64,26,5.95,scattered clouds
Iqaluit,CA,63.7506,-68.5145,4.69,77,100,15.99,light snow
Cherskiy,RU,68.75,161.3,22.39,86,100,13.13,overcast clouds
Albany,US,42.6001,-73.9662,38.23,93,80,3.29,broken clouds
Skibbereen,IE,51.55,-9.2667,52.11,99,100,7.67,moderate rain
Mahébourg,MU,-20.4081,57.7,78.26,88,75,13.8,broken clouds
Sanming,CN,26.2486,117.6186,60.71,80,100,1.86,overcast clouds
Airai,TL,-8.9266,125.4092,72.61,70,50,1.12,scattered clouds
Lüderitz,NA,-26.6481,15.1594,61.95,60,0,9.98,clear sky
Sakakah,SA,29.9697,40.2064,62.17,20,0,7.49,clear sky
Tulun,RU,54.5611,100.5792,59.05,40,90,6.8,overcast clouds
Tomatlán,MX,19.9333,-105.25,71.44,56,100,1.34,overcast clouds
Clyde River,CA,70.4692,-68.5914,-9.17,84,100,10.36,light snow
Esim,GH,4.8699,-2.2405,75.11,87,100,2.93,light rain
Sisa,PE,-6.6167,-76.6915,74.17,91,98,2.71,overcast clouds
Bull Savanna,JM,17.8868,-77.5902,73.08,83,5,6.69,clear sky
Nikolskoye,RU,59.7035,30.7861,31.8,82,50,2.75,scattered clouds
Hithadhoo,MV,-0.6,73.0833,83.62,62,95,6.15,overcast clouds
Abu Dhabi,AE,24.4667,54.3667,82.51,70,0,4.61,clear sky
Cockburn Town,TC,21.4612,-71.1419,77.47,83,100,22.21,overcast clouds
Adet,ET,11.2644,37.4888,59.97,81,100,2.66,moderate rain
Geraldton,AU,-28.7667,114.6,70.21,60,71,16.11,light rain
Jamestown,US,42.097,-79.2353,36.99,70,100,9.22,mist
Mahinog,PH,9.1578,124.7875,83.14,73,83,6.42,broken clouds
Atlantic City,US,39.3643,-74.4229,51.04,87,63,12.84,broken clouds
Kangaatsiaq,GL,68.3065,-53.4641,-5.84,97,20,7.72,few clouds
Pevek,RU,69.7008,170.3133,7.09,89,100,6.04,overcast clouds
Arraial do Cabo,BR,-22.9661,-42.0278,72.01,72,3,15.9,clear sky
Aklavik,CA,68.2191,-135.0107,8.91,87,22,12.39,few clouds
Ibrā’,OM,22.6906,58.5334,90.72,16,59,3.31,broken clouds
Key Largo,US,25.0865,-80.4473,77.99,83,0,13.0,clear sky
Paramirim,BR,-13.4425,-42.2389,69.1,96,94,7.0,overcast clouds
Nanortalik,GL,60.1432,-45.2371,28.9,84,94,8.63,overcast clouds
Maragogi,BR,-9.0122,-35.2225,77.59,89,91,5.64,overcast clouds
Dunedin,NZ,-45.8742,170.5036,54.81,71,98,15.01,overcast clouds
Punta Arenas,CL,-53.15,-70.9167,46.51,81,40,12.66,light intensity shower rain
San Patricio,US,28.017,-97.5169,75.83,89,90,8.86,overcast clouds
Amapá,BR,1.0,-52.0,71.01,99,75,1.68,broken clouds
Saldanha,ZA,-33.0117,17.9442,57.25,71,0,9.78,clear sky
Nuuk,GL,64.1835,-51.7216,25.41,68,20,8.05,few clouds
Ayaviri,PE,-14.8864,-70.5889,38.01,29,14,3.09,few clouds
Busselton,AU,-33.65,115.3333,66.16,44,36,10.67,scattered clouds
Chokurdakh,RU,70.6333,147.9167,8.2,86,25,2.95,scattered clouds
Ushuaia,AR,-54.8,-68.3,38.86,81,0,3.44,clear sky
Marystown,CA,47.1666,-55.1483,43.32,64,97,17.78,overcast clouds
Taman',RU,45.2117,36.7161,48.7,76,100,4.61,overcast clouds
Pavlodar,KZ,52.3,76.95,66.0,34,40,11.18,scattered clouds
Ugoofaaru,MV,5.6667,73.0,84.58,72,81,7.0,broken clouds
Stanley,FK,-51.7,-57.85,34.09,71,60,13.31,broken clouds
Bandarbeyla,SO,9.4942,50.8122,82.4,73,30,9.57,scattered clouds
Narsaq,GL,60.9167,-46.05,30.42,84,8,2.21,clear sky
Mitzic,GA,0.7821,11.549,69.37,98,86,2.28,overcast clouds
Upernavik,GL,72.7868,-56.1549,-18.89,100,60,7.81,broken clouds
Nemuro,JP,43.3236,145.575,41.79,73,6,16.33,clear sky
Medicine Hat,CA,50.0501,-110.6683,34.23,55,100,11.5,overcast clouds
Alvarães,BR,-3.2208,-64.8042,73.58,97,100,1.28,overcast clouds
Poronaysk,RU,49.2167,143.1167,31.48,97,100,14.41,snow
Honningsvåg,NO,70.9821,25.9704,38.95,87,100,25.32,light intensity drizzle
Ahipara,NZ,-35.1667,173.1667,61.23,85,100,15.26,overcast clouds
Mezen',RU,65.8522,44.24,33.51,88,100,9.55,overcast clouds
Hong Kong,HK,22.2855,114.1577,74.97,69,99,11.01,overcast clouds
Spirit River,CA,55.7833,-118.8361,29.37,70,100,4.41,overcast clouds
Esperance,AU,-33.8667,121.9,62.44,64,97,14.09,overcast clouds
Camocim,BR,-2.9022,-40.8411,75.85,92,98,4.97,overcast clouds
Tahe,CN,52.3333,124.7333,39.58,39,16,8.77,few clouds
Bom Jesus,BR,-9.0744,-44.3586,71.29,96,44,1.3,scattered clouds
Port Elizabeth,ZA,-33.918,25.5701,62.1,91,40,9.22,scattered clouds
Baykit,RU,61.67,96.37,42.76,96,100,6.51,light rain
Beloha,MG,-25.1667,45.05,72.73,91,66,7.43,broken clouds
Lompoc,US,34.6391,-120.4579,56.57,87,40,14.0,mist
Aljezur,PT,37.3191,-8.8033,60.28,66,82,7.94,broken clouds
Coquimbo,CL,-29.9533,-71.3436,56.93,88,40,4.61,scattered clouds
Cidreira,BR,-30.1811,-50.2056,65.93,72,79,6.42,broken clouds
Amarante do Maranhão,BR,-5.5667,-46.7422,71.11,97,51,1.61,broken clouds
São Bernardo,BR,-3.3614,-42.4178,73.38,97,99,2.13,overcast clouds
Xianshuigu,CN,38.985,117.3828,64.4,34,0,6.71,clear sky
Iralaya,HN,15.0,-83.2333,79.18,69,47,10.31,scattered clouds
Guerrero Negro,MX,27.9769,-114.0611,59.95,84,73,17.83,broken clouds
Tazovsky,RU,67.4667,78.7,12.52,91,100,18.5,overcast clouds
Saint Paul Harbor,US,57.79,-152.4072,38.71,81,100,11.5,overcast clouds
Klaksvík,FO,62.2266,-6.589,47.32,98,100,19.75,light rain
Ulverstone,AU,-41.15,146.1667,67.53,68,97,9.22,overcast clouds
Puerto Carreño,CO,6.189,-67.4859,78.06,82,100,6.55,moderate rain
Nichinan,JP,31.6,131.3667,64.08,48,3,4.72,clear sky
Thompson,CA,55.7435,-97.8558,21.36,53,100,4.61,overcast clouds
Rawson,AR,-43.3002,-65.1023,53.6,72,0,9.4,clear sky
Mokshan,RU,53.4365,44.6132,52.2,91,100,7.78,overcast clouds
Murgab,TM,37.4966,61.9714,68.45,43,89,9.78,overcast clouds
Ostrovnoy,RU,68.0531,39.5131,35.91,98,100,20.78,overcast clouds
Avon Park,US,27.5959,-81.5062,74.01,90,40,6.15,scattered clouds
Caculé,BR,-14.5033,-42.2222,69.85,84,100,6.42,overcast clouds
Laas,IT,46.6166,10.7002,41.88,59,10,6.11,clear sky
Lebu,CL,-37.6167,-73.65,52.65,92,50,9.19,scattered clouds
Souillac,MU,-20.5167,57.5167,77.38,88,75,13.8,broken clouds
Hofn,IS,64.2539,-15.2082,46.04,95,99,7.54,overcast clouds
Qaqortoq,GL,60.7167,-46.0333,26.4,90,8,5.19,clear sky
Nouadhibou,MR,20.931,-17.0347,62.58,94,75,11.5,broken clouds
Mitsamiouli,KM,-11.3847,43.2844,79.09,83,20,6.91,light rain
Tupik,RU,54.4253,119.9327,35.58,30,46,4.12,scattered clouds
Aykhal,RU,66.0,111.5,31.8,97,100,16.28,snow
Sitka,US,57.0531,-135.33,46.29,49,0,0.0,clear sky
Santa Rosa,PH,14.3122,121.1114,86.11,59,31,11.61,scattered clouds
Half Moon Bay,US,37.4636,-122.4286,54.28,76,0,16.11,clear sky
Gibraltar,GI,36.1447,-5.3526,58.95,77,0,6.91,clear sky
Broome,US,42.2506,-75.833,39.61,74,75,10.36,broken clouds
Kununurra,AU,-15.7667,128.7333,93.18,52,96,3.44,overcast clouds
Talen,IN,23.5667,76.7167,93.52,20,0,14.18,clear sky
Turbat,PK,26.0023,63.044,88.59,38,43,4.47,scattered clouds
Santiago del Estero,AR,-27.7951,-64.2615,60.39,59,5,5.14,clear sky
Poconé,BR,-16.2567,-56.6228,77.47,66,90,3.18,overcast clouds
Samarai,PG,-10.6167,150.6667,84.07,71,98,8.77,overcast clouds
Santa Vitória do Palmar,BR,-33.5189,-53.3681,59.83,86,13,3.15,few clouds
Ţahţā,EG,26.7693,31.5021,79.59,15,0,8.25,clear sky
Mana,GF,5.6592,-53.7767,77.14,89,98,9.73,overcast clouds
Los Llanos de Aridane,ES,28.6585,-17.9182,60.55,82,0,10.36,clear sky
Oistins,BB,13.0667,-59.5333,78.89,78,40,20.71,scattered clouds
Caucel,MX,21.0167,-89.7167,82.47,70,0,14.0,clear sky
Ningxiang,CN,37.34,111.2052,52.14,34,100,9.89,moderate rain
Cape Town,ZA,-33.9258,18.4232,59.11,77,0,8.05,clear sky
Shingū,JP,33.7333,135.9833,62.96,72,61,10.78,broken clouds
Huangmei,CN,30.1924,116.025,64.69,48,90,5.28,overcast clouds
Lumeje,AO,-11.55,20.7833,62.62,98,96,4.07,overcast clouds
Cabo San Lucas,MX,22.8909,-109.9124,78.1,56,100,10.83,overcast clouds
Cinco Esquinas,CR,10.1037,-84.1678,65.17,54,0,8.05,clear sky
Kruisfontein,ZA,-34.0033,24.7314,59.88,92,0,3.0,clear sky
Tasiilaq,GL,65.6145,-37.6368,33.96,98,100,5.57,light snow
Koltubanovskiy,RU,52.9407,52.0269,44.46,68,100,8.55,overcast clouds
Kaitangata,NZ,-46.2817,169.8464,55.78,64,90,10.47,overcast clouds
Mar del Plata,AR,-38.0023,-57.5575,59.88,87,72,5.99,fog
Kita,ML,13.0349,-9.4895,81.23,51,82,6.17,broken clouds
Batagay,RU,67.6333,134.6333,21.83,75,100,3.6,overcast clouds
Reguengos de Monsaraz,PT,38.4253,-7.5349,53.98,59,22,3.56,few clouds
Pucallpa,PE,-8.3791,-74.5539,75.24,100,20,2.3,few clouds
Mayo,US,38.8876,-76.5119,59.49,75,75,12.66,light rain
Goderich,CA,43.7501,-81.7165,32.92,80,100,16.11,overcast clouds
Ambilobe,MG,-13.2,49.05,72.16,83,6,3.02,clear sky
Eureka,US,40.8021,-124.1637,47.93,75,72,3.0,broken clouds
San Quintín,MX,30.4833,-115.95,59.23,85,0,16.49,clear sky
Saint-Philippe,RE,-21.3585,55.7679,74.21,80,36,8.75,scattered clouds
East London,ZA,-33.0153,27.9116,61.48,77,100,7.0,overcast clouds
Ancud,CL,-41.8697,-73.8203,55.22,87,0,3.4,clear sky
Flinders,AU,-34.5833,150.8552,78.19,58,1,8.99,clear sky
Gizo Government Station,SB,-8.103,156.8419,81.84,73,100,5.77,overcast clouds
Montepuez,MZ,-13.1256,38.9997,67.1,98,28,5.12,scattered clouds
Progreso,MX,21.2833,-89.6667,82.51,80,4,16.64,clear sky
Vilyuysk,RU,63.7553,121.6247,30.34,74,62,10.54,broken clouds
Kikwit,CD,-5.041,18.8162,71.69,92,97,1.52,overcast clouds
Skovorodino,RU,53.9833,123.9167,41.43,28,71,6.42,broken clouds
Mayumba,GA,-3.432,10.6554,76.12,93,37,5.41,light rain
Norman Wells,CA,65.282,-126.8329,17.64,35,20,4.61,few clouds
Yarmouth,US,41.7057,-70.2286,49.08,89,100,20.0,light rain
Cabedelo,BR,-6.9811,-34.8339,79.47,86,87,7.7,overcast clouds
Miyang,CN,24.4042,103.4428,79.0,44,11,10.16,few clouds
Port Moresby,PG,-9.4431,147.1797,90.82,58,40,13.8,scattered clouds
La Ronge,CA,55.1001,-105.2842,32.22,43,100,4.61,overcast clouds
Hirara,JP,24.8,125.2833,73.67,60,75,13.8,broken clouds
Berwick,US,41.0545,-76.2333,47.32,88,98,7.2,overcast clouds
Władysławowo,PL,54.7909,18.4009,35.94,69,100,3.47,overcast clouds
Clarence Town,AU,-32.5833,151.7833,75.61,55,15,4.05,few clouds
Sulangan,PH,11.1373,123.7228,82.53,73,61,8.16,broken clouds
Port Blair,IN,11.6667,92.75,86.04,70,20,5.75,few clouds
Tuatapere,NZ,-46.1333,167.6833,57.11,55,86,2.84,overcast clouds
Paranaíba,BR,-19.6772,-51.1908,58.35,70,1,5.44,clear sky
Leningradskiy,RU,69.3833,178.4167,14.74,92,91,7.34,overcast clouds
Binzhou,CN,37.3667,118.0167,70.34,18,94,8.95,overcast clouds
Port Hardy,CA,50.6996,-127.4199,44.78,61,40,10.36,scattered clouds
Cortez,US,37.3489,-108.5859,61.56,13,20,18.41,few clouds
San Luis,AR,-33.295,-66.3356,57.63,43,14,6.04,few clouds
Bulawayo,ZW,-20.15,28.5833,59.18,97,100,10.76,light rain
Kaputa,ZM,-8.4689,29.6619,65.68,95,84,2.39,light rain
Saint Anthony,US,45.0205,-93.218,33.73,50,0,5.75,clear sky
Kahului,US,20.8947,-156.47,80.62,44,75,11.5,broken clouds
Mehamn,NO,71.0357,27.8492,37.33,90,100,26.96,overcast clouds
Westport,US,41.1415,-73.3579,46.38,91,100,5.01,moderate rain
Charter Township of Clinton,US,42.587,-82.9199,36.95,65,100,12.66,overcast clouds
Katsuura,JP,35.1333,140.3,59.14,58,100,9.37,light rain
Shirokiy,RU,49.758,129.523,43.27,46,94,15.66,overcast clouds
Seda,LV,57.65,25.75,30.9,80,78,3.09,broken clouds
Ilulissat,GL,69.2167,-51.1,-9.74,90,7,5.66,clear sky
Naze,JP,28.3667,129.4833,70.72,55,88,10.25,overcast clouds
Koslan,RU,63.4564,48.8989,27.19,81,34,7.76,scattered clouds
Yaan,NG,7.3833,8.5667,77.97,80,90,4.18,overcast clouds
Teplá,CZ,49.98,12.8643,29.55,76,53,3.27,broken clouds
Hobart,AU,-42.8794,147.3294,78.26,45,0,20.71,clear sky
Kushima,JP,31.4583,131.2333,68.5,48,3,6.44,clear sky
Constitución,CL,-35.3333,-72.4167,53.64,76,0,4.36,clear sky
Belyy,RU,55.8402,32.9419,29.82,81,8,8.79,clear sky
Lázaro Cárdenas,MX,17.9583,-102.2,73.42,79,5,2.73,clear sky
Tautira,PF,-17.7333,-149.15,79.72,76,3,9.75,light rain
Kattivākkam,IN,13.2167,80.3167,87.89,71,98,11.1,overcast clouds
Gobabis,NA,-22.45,18.9667,61.65,54,95,4.63,overcast clouds
Kajaani,FI,64.2273,27.7285,30.25,64,0,6.91,clear sky
Galle,LK,6.0367,80.217,84.72,69,80,6.73,broken clouds
Nara,JP,34.6851,135.8049,67.91,47,51,6.69,broken clouds
Bataiporã,BR,-22.2953,-53.2711,57.9,86,0,3.74,clear sky
Haines Junction,CA,60.7522,-137.5108,33.75,60,100,4.61,overcast clouds
Severo-Kuril'sk,RU,50.6789,156.125,32.83,81,100,13.06,overcast clouds
Walvis Bay,NA,-22.9575,14.5053,52.75,100,24,1.14,few clouds
Sept-Îles,CA,50.2001,-66.3821,31.05,81,20,1.14,few clouds
Hasaki,JP,35.7333,140.8333,64.29,55,98,9.26,light rain
Aksu,CN,41.1231,80.2644,63.09,11,77,11.27,broken clouds
Praia da Vitória,PT,38.7333,-27.0667,57.76,94,40,11.83,scattered clouds
Minot,US,48.2325,-101.2963,19.62,73,0,6.91,clear sky
Katherine,AU,-14.4667,132.2667,95.32,29,61,14.97,broken clouds
Show Low,US,34.2542,-110.0298,57.49,20,0,19.57,clear sky
Saint George,US,37.1041,-113.5841,70.39,21,0,5.75,clear sky
Mackay,AU,-21.15,149.2,85.68,65,7,18.41,clear sky
Howard Springs,AU,-12.497,131.047,89.98,71,91,6.98,overcast clouds
Saskylakh,RU,71.9167,114.0833,21.96,92,100,20.07,overcast clouds
Barcelos,PT,41.5388,-8.6151,55.54,90,93,2.19,overcast clouds
Carnarvon,AU,-24.8667,113.6333,78.87,57,100,16.11,light rain
Santa Catarina,BR,-27.0,-50.0,48.94,99,13,0.92,few clouds
Safi,MA,32.2994,-9.2372,65.48,57,98,12.24,overcast clouds
Hambantota,LK,6.1241,81.1185,84.54,94,40,5.75,scattered clouds
Bakel,SN,14.905,-12.4568,85.93,14,33,11.7,scattered clouds
Angoram,PG,-4.0625,144.0661,87.84,63,56,4.7,broken clouds
Suez,EG,29.9737,32.5263,72.37,14,0,3.42,clear sky
Gimli,CA,50.6336,-96.9907,21.22,53,45,1.14,scattered clouds
Kumul,CN,42.8,93.45,62.2,15,0,8.81,clear sky
Pareora,NZ,-44.4871,171.2132,56.17,91,100,11.45,overcast clouds
Três Lagoas,BR,-20.7511,-51.6783,58.8,79,0,5.64,clear sky
Alofi,NU,-19.0595,-169.9187,85.89,70,57,6.91,broken clouds
Chui,UY,-33.6971,-53.4616,58.82,86,5,3.47,clear sky
City of San Pedro,PH,14.35,121.0167,85.35,76,75,6.91,broken clouds
Najrān,SA,17.4924,44.1277,70.45,23,24,1.83,few clouds
Ouésso,CG,1.6136,16.0517,72.0,90,51,1.92,broken clouds
Yulara,AU,-25.2406,130.9889,87.64,23,4,5.75,clear sky
Poplar Bluff,US,36.757,-90.3929,55.29,47,100,8.05,overcast clouds
Kayes,ML,14.0,-11.0,92.1,20,84,5.73,broken clouds
Korla,CN,41.7597,86.1469,59.95,8,0,6.08,clear sky
Roebourne,AU,-20.7833,117.1333,95.97,24,10,10.67,clear sky
Yeppoon,AU,-23.1333,150.7333,82.18,60,1,12.82,clear sky
Fairbanks,US,64.8378,-147.7164,33.76,34,0,14.97,clear sky
Daru,PG,-9.0763,143.2092,83.03,81,91,6.96,overcast clouds
Pemangkat,ID,1.1667,108.9667,87.08,62,94,4.92,overcast clouds
Basco,PH,20.4487,121.9702,76.84,76,67,16.22,broken clouds
Novi Troyany,UA,45.9427,28.8563,40.44,76,100,18.92,light rain
Shache,CN,38.4167,77.2406,60.71,17,0,8.52,clear sky
George Town,MY,5.4112,100.3354,89.53,70,20,3.44,few clouds
Pisco,PE,-13.7,-76.2167,65.01,82,0,6.91,clear sky
Mattru,SL,7.6244,-11.8332,74.64,91,81,1.39,broken clouds
Arlit,NE,18.7369,7.3853,72.12,16,95,8.99,overcast clouds
Acapulco de Juárez,MX,16.8634,-99.8901,80.42,69,0,2.3,clear sky
Sung Noen,TH,14.8992,101.8207,93.29,100,83,3.2,broken clouds
Touros,BR,-5.1989,-35.4608,78.93,84,93,6.13,overcast clouds
San Ramon,US,37.7799,-121.978,52.38,73,0,8.05,clear sky
Melfi,IT,40.9965,15.6514,42.42,78,100,12.75,overcast clouds
Torbay,CA,47.6666,-52.7314,45.88,71,40,23.02,scattered clouds
Hoquiam,US,46.9809,-123.8893,44.58,74,0,13.8,clear sky
Gushi,CN,34.6425,109.5843,62.53,45,96,12.93,overcast clouds
San Policarpo,PH,12.1791,125.5072,83.66,70,55,8.68,broken clouds
Chumikan,RU,54.7183,135.315,30.4,75,100,6.46,overcast clouds
Youhao,CN,47.8667,128.8333,45.03,35,95,9.42,overcast clouds
Bengkulu,ID,-3.8004,102.2655,85.86,66,83,5.46,broken clouds
Gandorhun,SL,7.5,-11.8333,74.59,92,78,2.24,broken clouds
Iranshahr,IR,27.2025,60.6848,77.34,25,0,6.91,clear sky
Bhainsa,IN,26.9548,76.9012,94.96,7,0,5.12,clear sky
Itamarandiba,BR,-17.8572,-42.8589,62.74,92,81,2.91,broken clouds
Xapuri,BR,-10.6517,-68.5044,72.12,87,79,3.0,broken clouds
Vao,NC,-22.6667,167.4833,77.38,67,0,6.73,clear sky
Sikasso,ML,10.9167,-7.0,74.61,73,100,2.71,overcast clouds
Fort Nelson,CA,58.8053,-122.7002,17.19,79,100,8.05,light snow
Curvelo,BR,-18.7564,-44.4308,66.11,87,47,4.16,scattered clouds
Pyapon,MM,16.2833,95.6833,94.53,40,4,5.61,clear sky
Magadan,RU,59.5667,150.8,34.54,65,76,2.57,broken clouds
Vila Franca do Campo,PT,37.7167,-25.4333,61.21,91,98,9.6,overcast clouds
Lucea,JM,18.451,-78.1736,71.46,77,8,5.88,light rain
Prudy,RU,57.5738,46.2718,30.78,72,99,11.36,overcast clouds
Kavieng,PG,-2.5744,150.7967,84.6,71,26,8.03,scattered clouds
Taoudenni,ML,22.6783,-3.9836,71.4,30,0,10.78,clear sky
Ipswich,GB,52.0592,1.1555,50.05,84,97,5.75,haze
Hashtrūd,IR,37.4779,47.0508,40.14,68,4,1.66,clear sky
Saint-Médard-en-Jalles,FR,44.8969,-0.7214,52.02,82,0,3.44,clear sky
Man,CI,7.4125,-7.5538,69.66,99,100,2.24,moderate rain
Beringovskiy,RU,63.05,179.3167,31.73,98,100,18.34,light snow
Staryy Nadym,RU,65.6118,72.6842,16.57,81,97,16.71,overcast clouds
Trencin,SK,48.8333,18.25,34.07,76,35,5.97,scattered clouds
Garoowe,SO,8.4054,48.4845,77.52,75,39,9.66,scattered clouds
Palmer,US,42.1584,-72.3287,42.4,84,100,5.75,light rain
Pattani,TH,6.75,100.4167,87.51,59,98,2.26,overcast clouds
Huarmey,PE,-10.0681,-78.1522,67.06,85,97,7.58,overcast clouds
De-Kastri,RU,51.4667,140.7833,33.82,92,100,7.83,light snow
Vestmannaeyjar,IS,63.4427,-20.2734,45.97,82,49,12.39,scattered clouds
Rafaela,AR,-31.2503,-61.4867,60.98,50,13,4.81,few clouds
Kemijärvi,FI,66.7131,27.4306,33.84,89,99,4.47,overcast clouds
Horqueta,PY,-23.3428,-57.0597,62.73,60,70,3.58,broken clouds
Hobyo,SO,5.3505,48.5268,83.57,73,33,12.57,scattered clouds
St. George's,GD,12.0564,-61.7485,80.28,78,40,23.02,scattered clouds
Castrillón,ES,43.3979,-6.7922,50.14,96,87,0.83,overcast clouds
Seoul,KR,37.5683,126.9778,63.97,36,0,4.61,clear sky
Sobolevo,RU,54.4299,31.8996,30.31,84,91,13.35,overcast clouds
Moïssala,TD,8.3404,17.7663,77.94,56,1,4.21,clear sky
Kieta,PG,-6.2167,155.6333,83.91,72,95,4.83,light rain
Rongcheng,CN,30.634,117.8517,66.47,51,76,2.73,broken clouds
Paamiut,GL,61.994,-49.6678,22.48,86,28,0.34,scattered clouds
Estelle,US,29.8458,-90.1067,75.2,76,100,8.05,overcast clouds
The Pas,CA,53.8251,-101.2541,24.82,39,75,2.3,broken clouds
Gazli,UZ,40.1333,63.45,70.39,43,13,17.45,few clouds
Khovd,MN,48.0056,91.6419,52.11,12,0,3.56,clear sky
Rancho Palos Verdes,US,33.7445,-118.387,61.95,90,20,12.66,few clouds
Lusambo,CD,-4.9667,23.45,68.74,99,100,1.3,overcast clouds
Balkhash,KZ,46.844,74.9804,57.81,19,0,17.9,clear sky
Hudson Bay,CA,52.85,-102.3842,18.23,97,100,2.15,overcast clouds
Champerico,GT,14.3,-91.9167,83.86,71,9,9.1,clear sky
Saint-Jérôme,CA,45.7804,-74.0036,39.07,48,75,2.3,broken clouds
Margate,GB,51.3813,1.3862,49.3,86,54,3.0,broken clouds
Ranong,TH,9.9658,98.6348,85.93,60,44,3.78,scattered clouds
Obo,CF,5.3998,26.4869,67.78,96,100,3.65,overcast clouds
Prince George,CA,53.9166,-122.753,36.84,38,0,6.91,clear sky
Plátanos,GR,37.6667,21.6167,62.08,56,93,6.44,overcast clouds
Panabá,MX,21.2833,-88.2667,76.87,73,1,10.27,clear sky
Matara,LK,5.9485,80.5353,85.23,70,83,6.33,broken clouds
Tonota,BW,-21.4833,27.4833,61.14,94,100,10.76,light rain
Batemans Bay,AU,-35.7167,150.1833,71.1,49,2,10.45,clear sky
Manakara,MG,-22.1333,48.0167,73.31,87,20,1.7,few clouds
Penzance,GB,50.1186,-5.5371,50.68,87,99,12.33,overcast clouds
Hay River,CA,60.8156,-115.7999,8.58,66,75,5.75,broken clouds
Machacamarca,BO,-18.1667,-67.0333,44.31,18,10,2.35,clear sky
Tornio,FI,65.8481,24.1466,26.62,95,89,3.38,overcast clouds
Inírida,CO,3.8653,-67.9239,73.0,93,99,1.23,overcast clouds
Mgachi,RU,51.05,142.2667,39.54,64,100,6.38,light rain
Boddam,GB,57.4667,-1.7833,50.43,95,100,12.66,overcast clouds
Fortuna,US,40.5982,-124.1573,47.66,80,0,5.75,clear sky
Horní Bříza,CZ,49.8401,13.3556,37.22,92,0,0.0,clear sky
Lasem,ID,-6.6922,111.4527,87.21,67,41,4.81,scattered clouds
Bud,US,39.447,-86.1758,44.67,56,21,8.14,few clouds
Mount Isa,AU,-20.7333,139.5,91.17,16,5,5.75,clear sky
Acaraú,BR,-2.8856,-40.12,77.59,86,86,5.79,heavy intensity rain
Kiryat Gat,IL,31.61,34.7642,69.4,27,29,5.08,scattered clouds
Santa Rosalía,MX,27.3167,-112.2833,71.67,35,86,5.19,overcast clouds
Ust-Maya,RU,60.4167,134.5333,34.11,70,51,0.11,light snow
Richards Bay,ZA,-28.783,32.0377,63.55,89,100,5.88,light rain
Port Augusta,AU,-32.5,137.7667,87.26,21,100,16.04,light rain
Requena,ES,39.4883,-1.1004,51.51,55,0,5.35,clear sky
Patiya,BD,22.2931,91.9762,87.75,74,40,6.91,scattered clouds
Phibun Mangsahan,TH,15.2447,105.2291,89.1,45,60,7.18,broken clouds
Atambua,ID,-9.1061,124.8925,83.32,68,84,3.11,broken clouds
Dera Ghazi Khan,PK,30.0561,70.6348,94.71,10,28,14.03,scattered clouds
Polson,US,47.6936,-114.1632,32.22,69,100,4.12,overcast clouds
Nome,US,64.5011,-165.4064,34.11,75,100,18.41,overcast clouds
Bukama,CD,-9.2,25.85,69.89,98,100,2.1,overcast clouds
Būlaevo,KZ,54.9056,70.4439,49.24,56,8,6.76,clear sky
Denia,ES,38.8408,0.1057,63.75,67,0,1.99,clear sky
Bykovo,RU,55.6361,38.0803,32.36,69,75,13.42,light snow
Umm Kaddadah,SD,13.6017,26.6876,73.96,9,14,4.59,few clouds
Riyadh,SA,24.6877,46.7219,69.94,18,1,8.5,clear sky
Itarema,BR,-2.9248,-39.9167,76.96,87,90,5.77,light rain
São Filipe,CV,14.8961,-24.4956,70.5,80,33,6.51,scattered clouds
Ji’an,CN,27.1172,114.9793,53.96,86,100,3.27,overcast clouds
Kasongo-Lunda,CD,-6.4667,16.8167,69.76,99,100,1.74,light rain
Port-Cartier,CA,50.0334,-66.8654,30.74,87,56,4.47,broken clouds
Kavaratti,IN,10.5669,72.642,84.2,73,45,6.8,scattered clouds
Jolalpan,MX,18.325,-98.8417,88.92,29,36,2.86,scattered clouds
Hervey Bay,AU,-25.2986,152.8535,77.02,65,44,11.99,scattered clouds
Bogorodskoye,RU,56.55,37.8833,29.61,78,38,11.3,scattered clouds
Kerema,PG,-7.9631,145.7785,84.49,74,81,8.81,broken clouds
Dingle,PH,10.9995,122.6711,86.83,64,100,9.22,overcast clouds
Cayenne,GF,4.9333,-52.3333,81.09,1,20,4.0,few clouds
‘Āhuimanu,US,21.4447,-157.8378,80.31,79,75,13.8,shower rain
Chernyshevskiy,RU,63.0128,112.4714,31.95,97,100,9.75,light snow
Rocha,UY,-34.4833,-54.3333,53.26,92,0,2.15,clear sky
Virbalis,LT,54.6267,22.8169,31.42,79,99,4.14,overcast clouds
Ulaangom,MN,49.9811,92.0667,50.38,23,5,4.65,clear sky
Novoagansk,RU,61.9449,76.6625,26.46,73,100,12.41,overcast clouds
Kabalo,CD,-6.05,26.9167,67.64,97,100,2.89,overcast clouds
Donskoye,RU,45.4552,41.9741,51.62,74,63,8.68,broken clouds
Mumford,GH,5.2618,-0.759,77.36,86,100,5.35,overcast clouds
Lata,PT,40.1629,-8.3327,51.93,93,92,1.7,overcast clouds
Markova,UA,48.6758,24.4138,29.84,96,92,4.97,light snow
Rosarito,MX,32.3333,-117.0333,61.75,80,4,8.97,clear sky
Shenjiamen,CN,29.9576,122.298,58.15,53,47,8.77,scattered clouds
Rome,US,43.2128,-75.4557,39.34,77,100,14.0,overcast clouds
Assiut,EG,27.181,31.1837,71.78,17,1,8.16,clear sky
Mount Gambier,AU,-37.8333,140.7667,71.51,53,100,19.57,light rain
Guane,CU,22.2025,-84.0875,74.05,84,42,6.71,scattered clouds
Evanston,US,42.0411,-87.6901,37.94,71,20,5.75,few clouds
Jumla,NP,29.2747,82.1838,64.63,23,0,2.33,clear sky
Lages,BR,-27.8161,-50.3261,46.15,99,3,2.57,clear sky
Mnogovershinnyy,RU,53.9353,139.9242,28.58,89,100,7.16,overcast clouds
Dembī Dolo,ET,8.5333,34.8,57.85,94,100,4.94,overcast clouds
Ballina,AU,-28.8667,153.5667,75.16,75,40,11.5,scattered clouds
Buala,SB,-8.145,159.5921,82.87,72,95,2.84,light rain
Siparia,TT,10.1333,-61.5,76.82,92,3,12.3,clear sky
Nāgamangala,IN,12.8156,76.7575,84.29,43,25,4.83,scattered clouds
Hokitika,NZ,-42.7167,170.9667,62.01,63,100,4.14,overcast clouds
Lazarev,RU,52.225,141.5131,33.37,86,92,10.38,overcast clouds
Santa,PH,17.486,120.4348,89.02,71,93,5.79,overcast clouds
Buluang,PH,13.3068,123.3425,88.12,55,24,2.35,few clouds
Gubkinskiy,RU,64.434,76.5026,16.11,87,98,17.69,overcast clouds
Sokoto,NG,13.0609,5.239,83.07,45,82,4.65,broken clouds
Peştera,RO,44.1833,28.1333,45.34,82,100,18.5,overcast clouds
Soyo,AO,-6.1349,12.3689,76.96,92,82,6.35,broken clouds
Yavatmal,IN,20.4,78.1333,96.55,12,0,4.9,clear sky
Atyrau,KZ,47.1167,51.8833,42.82,100,75,2.24,fog
Alice Springs,AU,-23.7,133.8833,92.75,15,10,13.8,clear sky
Sovetskiy,RU,61.3614,63.5842,28.69,81,100,7.27,overcast clouds
Saint-Prosper,CA,46.2117,-70.4811,35.89,83,100,2.51,overcast clouds
San Cristobal,VE,7.7669,-72.225,75.38,96,100,4.59,overcast clouds
Shelburne,CA,44.0787,-80.2041,27.9,80,97,10.69,overcast clouds
Reconquista,AR,-29.15,-59.65,56.79,90,20,5.91,few clouds
Nepomuceno,BR,-21.2358,-45.2358,52.7,94,0,4.72,clear sky
Smoky Lake,CA,54.1169,-112.4686,24.31,90,100,6.8,overcast clouds
Bambous Virieux,MU,-20.3428,57.7575,78.22,88,75,13.8,light rain
Graaff-Reinet,ZA,-32.2522,24.5308,51.93,89,3,2.84,clear sky
Puerto Escondido,MX,15.85,-97.0667,83.23,69,40,4.61,scattered clouds
Khanpur,PK,28.6453,70.6567,95.02,7,53,4.07,broken clouds
Lake Havasu City,US,34.4839,-114.3224,80.6,13,75,11.5,broken clouds
Fauske,NO,67.2588,15.3918,42.84,92,100,0.72,overcast clouds
Pelym,RU,61.0108,61.9978,28.89,71,77,8.5,broken clouds
Yei,SS,4.095,30.6779,66.25,85,94,3.11,overcast clouds
Bentiu,SS,9.2333,29.8333,79.16,64,92,3.76,overcast clouds
Genhe,CN,50.7833,121.5167,36.7,29,20,6.78,few clouds
Siderno,IT,38.2779,16.302,60.33,74,100,7.49,overcast clouds
Rio Grande,BR,-32.035,-52.0986,65.82,74,88,9.31,overcast clouds
Deputatsky,RU,69.3,139.9,13.5,87,100,4.09,overcast clouds
Coral Hills,US,38.8704,-76.9211,60.08,72,100,3.44,overcast clouds
Isangel,VU,-19.55,169.2667,87.91,74,40,2.3,scattered clouds
La Palma,US,33.8464,-118.0467,64.81,79,40,11.5,scattered clouds
Okhotsk,RU,59.3833,143.3,28.13,75,98,9.24,overcast clouds
Tayu,ID,-6.5397,111.0518,87.13,65,23,4.9,few clouds
Marang,MY,5.2056,103.2059,87.71,71,58,5.41,broken clouds
Port Macquarie,AU,-31.4333,152.9167,70.9,75,99,4.36,overcast clouds
Banjarmasin,ID,-3.3244,114.591,86.14,66,100,2.89,overcast clouds
Bordighera,IT,43.7806,7.6645,61.09,58,83,5.99,broken clouds
Nchelenge,ZM,-9.3451,28.734,67.69,88,100,4.56,light rain
João Câmara,BR,-5.5375,-35.8197,73.49,95,89,3.89,overcast clouds
Karasjok,NO,69.4719,25.5112,37.8,96,100,12.39,overcast clouds
Husavik,IS,66.0449,-17.3389,41.13,86,53,8.63,broken clouds
Olinda,BR,-8.0089,-34.8553,82.13,83,75,3.44,broken clouds
Ilhabela,BR,-23.7781,-45.3581,66.6,85,34,3.62,scattered clouds
Nalbari,IN,26.4456,91.4354,80.58,61,3,2.35,clear sky
Novo Horizonte,BR,-21.4681,-49.2208,59.22,85,0,10.42,clear sky
Grand-Lahou,CI,5.1367,-5.0242,76.12,90,100,7.4,light rain
Anadyr,RU,64.75,177.4833,34.3,74,0,15.66,clear sky
Lovozero,RU,68.005,35.0117,36.07,99,100,20.62,overcast clouds
Ubari,LY,26.5921,12.7805,59.7,52,0,10.87,clear sky
Beira,MZ,-19.8436,34.8389,80.69,83,40,9.22,scattered clouds
Bariloche,AR,-41.1456,-71.3082,44.35,61,0,6.91,clear sky
Dali,CN,25.7,100.1833,70.11,39,16,9.73,few clouds
Fort Myers Beach,US,26.452,-81.9481,76.01,86,100,1.99,overcast clouds
Kanhangad,IN,12.3081,75.1063,86.02,66,63,0.56,broken clouds
Pangnirtung,CA,66.1451,-65.7125,1.2,87,100,6.8,overcast clouds
Buchanan,LR,5.8808,-10.0467,77.5,87,99,5.23,light rain
Ayan,RU,56.45,138.1667,28.09,76,71,7.05,broken clouds
Yuanping,CN,38.7153,112.7575,59.49,20,100,4.16,overcast clouds
Pitimbu,BR,-7.4706,-34.8086,79.39,85,74,7.56,broken clouds
Surgut,RU,61.25,73.4167,24.98,85,40,11.01,light shower snow
Cape Coast,GH,5.1053,-1.2466,76.86,86,100,6.58,overcast clouds
Kudahuvadhoo,MV,2.6708,72.8944,83.91,73,97,11.03,overcast clouds
Bisert',RU,56.8617,59.0523,32.38,62,84,4.38,broken clouds
San Ignacio,BZ,17.1561,-89.0714,82.54,74,0,4.61,clear sky
Krasnosel'kup,RU,65.7,82.4667,18.82,87,100,17.52,overcast clouds
Asău,RO,46.4333,26.4,36.52,86,100,7.27,overcast clouds
Rumoi,JP,43.9344,141.6428,47.03,82,91,14.72,overcast clouds
Podosinovets,RU,60.2776,47.0659,30.09,82,15,3.27,few clouds
Tessalit,ML,20.1986,1.0114,67.91,27,100,9.75,overcast clouds
Río Gallegos,AR,-51.6226,-69.2181,48.25,87,0,11.5,clear sky
Khandyga,RU,62.6667,135.6,28.04,77,52,2.08,broken clouds
Shōbara,JP,34.85,133.0167,65.25,25,22,4.18,few clouds
Mahon,ES,39.8885,4.2658,63.16,59,0,12.66,clear sky
Olsberg,DE,51.35,8.5,33.42,79,0,5.3,clear sky
Kabelvåg,NO,68.2114,14.4817,43.54,99,100,15.12,overcast clouds
Muisne,EC,0.6,-80.0333,76.23,86,100,6.29,light rain
Salò,IT,45.6086,10.531,51.33,77,75,2.33,broken clouds
Labuan,MY,5.2767,115.2417,86.36,79,20,5.99,few clouds
Coruripe,BR,-10.1256,-36.1756,78.44,87,24,9.55,few clouds
Lewisporte,CA,49.2499,-55.0482,42.55,86,100,9.01,overcast clouds
Sinnamary,GF,5.3833,-52.95,77.22,88,96,11.39,overcast clouds
Newport,GB,51.5877,-2.9984,52.52,76,100,4.52,overcast clouds
Bondo,CD,3.8146,23.6866,68.22,98,62,2.64,broken clouds
Grand-Santi,GF,4.25,-54.3833,71.06,99,95,2.08,overcast clouds
Wamba,NG,8.9333,8.6,75.97,79,88,1.79,overcast clouds
Kuusamo,FI,65.9667,29.1833,32.04,69,0,5.75,clear sky
Urengoy,RU,65.9667,78.3667,14.45,89,100,17.27,overcast clouds
Alghero,IT,40.5589,8.3181,55.49,62,0,8.05,clear sky
Palauig,PH,15.435,119.9045,84.7,67,56,6.24,broken clouds
Zhigansk,RU,66.7697,123.3711,20.32,90,100,18.84,overcast clouds
Inhambane,MZ,-23.865,35.3833,72.77,91,81,6.06,moderate rain
Artesia,US,33.8658,-118.0831,64.29,79,0,11.5,clear sky
Durban,ZA,-29.8579,31.0292,62.92,94,100,3.0,moderate rain
Toamasina,MG,-18.1667,49.3833,73.4,94,40,6.91,light rain
Broken Hill,AU,-31.95,141.4333,83.91,21,28,14.97,scattered clouds
Nishihara,JP,26.1842,127.7558,71.26,58,100,9.22,overcast clouds
Luzhou,CN,28.8724,105.4405,54.23,93,100,2.84,overcast clouds
Bilma,NE,18.6853,12.9164,80.71,10,84,9.1,broken clouds
Whitehorse,CA,60.7161,-135.0538,31.01,58,100,11.5,overcast clouds
Ponta Delgada,PT,37.7333,-25.6667,61.52,82,20,13.8,few clouds
Saint-Pierre,RE,-21.3393,55.4781,74.28,78,0,3.44,clear sky
Lorengau,PG,-2.0226,147.2712,84.69,71,48,4.09,scattered clouds
Bernalillo,US,35.05,-106.6673,71.15,12,0,19.57,clear sky
Jūnāgarh,IN,19.8667,82.9333,99.5,20,52,6.04,broken clouds
Brattvåg,NO,62.6002,6.4434,43.29,93,75,5.75,broken clouds
Balabac,PH,7.9868,117.0645,84.18,69,72,6.35,broken clouds
Macultepec,MX,18.1667,-92.8333,82.09,78,0,5.75,clear sky
Guánica,PR,17.9716,-66.908,78.91,82,51,11.18,broken clouds
Faanui,PF,-16.4833,-151.75,82.15,71,4,12.46,clear sky
Mongoumba,CF,3.6415,18.5936,72.16,82,50,2.64,scattered clouds
Meulaboh,ID,4.1363,96.1285,86.05,67,37,2.42,scattered clouds
Bilibino,RU,68.0546,166.4372,24.24,80,99,2.1,overcast clouds
Aketi,CD,2.7388,23.7833,69.44,96,93,1.14,overcast clouds
Williams Lake,CA,52.1415,-122.1445,40.57,28,75,2.3,broken clouds
Mandalgovi,MN,45.7625,106.2708,44.8,33,27,16.58,scattered clouds
Timbiquí,CO,2.7717,-77.6654,74.75,95,100,2.86,light rain
Bathsheba,BB,13.2167,-59.5167,79.41,78,40,20.71,scattered clouds
Antofagasta,CL,-23.65,-70.4,58.28,77,52,4.32,broken clouds
Banda Aceh,ID,5.5577,95.3222,86.67,64,63,6.15,broken clouds
Viedma,AR,-40.8135,-62.9967,54.09,82,1,7.05,clear sky
Opuwo,NA,-18.0607,13.84,66.38,44,80,3.78,broken clouds
Itoman,JP,26.1247,127.6694,71.98,57,75,9.22,broken clouds
Northam,GB,51.0333,-4.2167,53.38,74,100,7.76,overcast clouds
Kollam,IN,8.8833,76.6,85.26,70,13,4.25,few clouds
Murray Bridge,AU,-35.1167,139.2667,79.12,36,100,11.52,overcast clouds
Camaná,PE,-16.6228,-72.7111,66.11,84,97,8.28,overcast clouds
Sur,OM,22.5667,59.5289,91.85,33,24,1.5,few clouds
Homer,US,59.6425,-151.5483,42.69,66,100,8.05,overcast clouds
Saint-François,FR,46.4154,3.9054,45.68,65,0,2.3,clear sky
High Level,CA,58.5169,-117.136,21.31,68,100,16.11,overcast clouds
College,US,64.8569,-147.8028,33.75,35,20,14.97,few clouds
Mandan,US,46.8267,-100.8896,22.98,75,100,11.5,overcast clouds
Ruteng,ID,-8.6136,120.4721,72.91,79,53,1.05,broken clouds
Lethbridge,CA,49.7,-112.8186,33.91,47,100,9.22,overcast clouds
Kulykivka,UA,51.3735,31.6466,35.44,98,100,10.8,light rain
Honiara,SB,-9.4333,159.95,84.2,72,98,3.98,light rain
Moussoro,TD,13.6408,16.4901,87.04,43,65,8.25,broken clouds
Kennett,US,36.2362,-90.0556,56.97,64,75,12.66,broken clouds
Falam,MM,22.9167,93.6833,87.35,20,25,2.68,scattered clouds
San Miguel de Tucumán,AR,-26.8241,-65.2226,60.8,88,40,5.75,scattered clouds
Mutoko,ZW,-17.397,32.2268,58.32,95,15,3.62,few clouds
Preobrazheniye,RU,42.9019,133.9064,50.4,39,92,11.25,overcast clouds
Bacolod City,PH,10.6667,122.95,86.14,67,99,11.1,overcast clouds
Weligama,LK,5.9667,80.4167,85.05,69,81,6.24,broken clouds
Verkhoyansk,RU,67.5447,133.385,22.6,75,100,5.82,overcast clouds
Portland,US,45.5234,-122.6762,46.98,72,20,6.91,few clouds
Nabire,ID,-3.3667,135.4833,84.49,71,54,6.42,broken clouds
Saint-Joseph,RE,-21.3667,55.6167,73.2,77,13,9.73,few clouds
Zhigalovo,RU,54.8097,105.1578,52.88,70,89,6.98,overcast clouds
Labuhan,ID,-6.8844,112.2051,86.83,68,44,6.08,scattered clouds
Boyolangu,ID,-8.1181,111.8935,87.22,65,69,4.88,broken clouds
Grindavik,IS,63.8424,-22.4338,43.27,100,100,14.97,mist
Guangming,CN,45.3333,122.7833,55.51,17,42,9.44,scattered clouds
Bat Yam,IL,32.0231,34.7503,66.15,72,0,2.3,clear sky
Turinskaya Sloboda,RU,57.6232,64.3858,33.64,71,63,10.71,broken clouds
Port Lincoln,AU,-34.7333,135.8667,67.08,71,100,10.36,moderate rain
Zadar,HR,44.1197,15.2422,48.81,49,0,24.16,clear sky
Kismayo,SO,-0.3582,42.5454,82.98,74,90,12.73,overcast clouds
Faya,SA,18.3851,42.4509,60.91,45,0,3.13,clear sky
Morondava,MG,-20.2833,44.2833,78.08,92,2,6.2,clear sky
Nhulunbuy,AU,-12.2333,136.7667,81.21,83,75,11.5,light rain
Bowen,AU,-20.0167,148.2333,80.56,54,17,19.8,few clouds
Muros,ES,42.7762,-9.0603,53.83,88,96,6.87,overcast clouds
Lamu,KE,-2.2717,40.902,82.38,76,91,11.61,light rain
Ţaga,RO,46.95,24.05,38.08,79,99,9.73,overcast clouds
Syracuse,IT,37.0881,15.2792,55.31,66,98,9.01,overcast clouds
Ondjiva,AO,-17.0667,15.7333,66.24,83,100,1.1,light rain
Tootsi,EE,58.5781,24.7925,26.35,65,68,1.28,broken clouds
Babīna,IN,25.25,78.4667,97.83,10,0,6.76,clear sky
Abu Samrah,SY,35.3029,37.1841,60.8,38,18,3.96,few clouds
Praia,CV,14.9215,-23.5087,70.34,73,20,10.36,few clouds
Pandan,PH,14.0453,124.1694,81.84,78,81,10.22,broken clouds
Verāval,IN,20.9,70.3667,83.32,60,0,9.33,clear sky
Quatre Cocos,MU,-20.2078,57.7625,78.1,82,75,14.92,light rain
Avera,US,33.194,-82.5271,63.91,94,100,4.03,overcast clouds
Gunnedah,AU,-30.9833,150.25,75.22,37,0,2.42,clear sky
Nakamura,JP,32.9833,132.9333,67.12,50,1,5.64,clear sky
Kawambwa,ZM,-9.7915,29.0791,60.19,97,99,4.45,overcast clouds
Merauke,ID,-8.4667,140.3333,85.21,69,100,3.65,moderate rain
Hwange,ZW,-18.3693,26.5019,66.13,94,93,4.16,light rain
Knysna,ZA,-34.0363,23.0471,56.44,78,0,4.32,clear sky
Departamento de Maldonado,UY,-34.6667,-54.9167,57.22,92,1,4.23,clear sky
El Vigia,VE,8.6219,-71.6506,77.72,82,100,3.71,overcast clouds
Necochea,AR,-38.5473,-58.7368,56.41,74,100,3.69,overcast clouds
Campbellsville,US,37.3434,-85.3419,50.11,78,90,7.76,overcast clouds
Atid,RO,46.45,25.05,39.34,93,100,4.27,light rain
São João da Barra,BR,-21.6403,-41.0511,67.89,81,34,9.57,scattered clouds
Yarmolyntsi,UA,49.1924,26.8373,32.04,85,42,13.13,scattered clouds
Province of Trapani,IT,37.8333,12.6667,58.24,78,34,5.84,scattered clouds
Sun Valley,US,39.5963,-119.776,50.68,52,40,24.16,scattered clouds
Sawtell,AU,-30.3833,153.1,69.19,88,100,10.36,overcast clouds
Arroyo de la Encomienda,ES,41.6096,-4.7969,49.14,75,0,6.91,clear sky
Mata,PT,40.683,-7.4592,52.61,86,48,1.14,scattered clouds
Hamilton,US,39.1834,-84.5333,49.05,52,20,13.8,few clouds
Ibotirama,BR,-12.1853,-43.2206,70.74,93,99,1.68,overcast clouds
Luwuk,ID,-0.9516,122.7875,78.85,91,97,4.63,overcast clouds
Buraidah,SA,26.326,43.975,66.65,15,0,10.33,clear sky
Dicabisagan,PH,17.0818,122.4157,80.89,76,39,7.9,scattered clouds
Kirovskiy,RU,45.0917,133.5136,53.06,21,59,13.27,broken clouds
Zaykovo,RU,57.5613,62.7568,33.49,70,77,8.41,broken clouds
Chekhov,RU,55.1431,37.4711,33.75,89,100,13.82,light snow
Tāybād,IR,34.74,60.7756,60.76,48,100,17.45,overcast clouds
Haibara-akanedai,JP,34.5333,135.95,64.65,58,53,6.02,broken clouds
Cassilândia,BR,-19.1133,-51.7342,57.2,63,0,3.85,clear sky
Ulladulla,AU,-35.35,150.4667,76.1,54,1,12.84,clear sky
Vernon,CA,50.2581,-119.2691,47.01,31,100,1.14,overcast clouds
Olafsvik,IS,64.8945,-23.7142,43.72,95,82,12.73,broken clouds
Virginia Beach,US,36.8529,-75.978,68.05,83,100,3.0,overcast clouds
Hutchinson,US,38.0608,-97.9298,51.73,34,100,13.8,overcast clouds
Pec,XK,42.6591,20.2883,43.88,97,100,6.06,overcast clouds
Lakatoro,VU,-16.0999,167.4164,83.98,71,61,4.05,broken clouds
Omboué,GA,-1.5746,9.2618,76.6,90,98,4.23,overcast clouds
Cap Malheureux,MU,-19.9842,57.6142,78.48,84,65,8.01,broken clouds
Coyhaique,CL,-45.5752,-72.0662,40.95,87,0,2.3,clear sky
Mercedes,AR,-34.6515,-59.4307,58.03,86,92,6.17,overcast clouds
Namatanai,PG,-3.6667,152.4333,84.69,70,56,7.96,light rain
Noshiro,JP,40.2039,140.0242,58.03,59,6,12.53,clear sky
Al Bardīyah,LY,31.7561,25.0865,77.31,23,95,25.88,overcast clouds
Dallas,US,32.7668,-96.7836,61.83,75,100,12.66,overcast clouds
Cervo,ES,43.6702,-7.4101,54.07,92,84,1.19,broken clouds
Mérida,MX,20.9667,-89.6167,82.42,69,0,14.0,clear sky
Cherëmukhovo,RU,60.3484,59.9851,27.12,71,30,7.58,scattered clouds
Fereydūnkenār,IR,36.6864,52.5225,54.61,73,100,10.76,overcast clouds
Kampong Chhnang,KH,12.1667,104.55,92.17,51,100,10.25,overcast clouds
Karratha,AU,-20.7377,116.8463,96.26,25,11,10.27,few clouds
Yanam,IN,16.7333,82.2167,94.33,48,22,5.55,few clouds
Sonoita,MX,31.85,-112.8333,71.49,21,0,4.36,clear sky
Kashgar,CN,39.4547,75.9797,60.01,20,1,11.18,dust
Sokol,RU,59.4617,40.1206,29.84,79,10,4.27,clear sky
Grand Gaube,MU,-20.0064,57.6608,78.39,84,70,8.01,broken clouds
Bandi̇̄pur,NP,27.9333,84.4167,86.31,11,0,3.2,clear sky
Baní,DO,18.2833,-70.3333,74.64,84,64,8.19,broken clouds
Chimbote,PE,-9.0853,-78.5783,65.08,90,89,5.32,overcast clouds
Heihe,CN,50.2441,127.4902,48.4,30,45,14.74,scattered clouds
Oriximiná,BR,-1.7656,-55.8661,74.48,95,100,1.57,overcast clouds
Mango,US,27.9797,-82.3065,76.96,85,28,4.0,scattered clouds
Lerwick,GB,60.1545,-1.1494,44.6,96,100,16.46,overcast clouds
Ketchikan,US,55.3422,-131.6461,48.67,40,0,9.22,clear sky
Motygino,RU,58.1831,94.7592,53.01,75,96,10.22,overcast clouds
Tongliao,CN,43.6125,122.2653,60.33,23,33,10.58,scattered clouds
Ponferrada,ES,42.5466,-6.5962,57.09,78,58,1.01,broken clouds
Bragança,BR,-1.0536,-46.7656,73.44,99,100,0.85,overcast clouds
La Rioja,ES,42.25,-2.5,38.98,67,1,6.13,clear sky
Mbaïki,CF,3.8678,17.9892,71.13,82,76,2.39,broken clouds
Zaterechnyy,RU,44.7931,45.2097,52.25,64,6,7.27,clear sky
Blagoyevo,RU,63.3667,47.9167,27.21,87,55,7.07,broken clouds
Shetpe,KZ,44.1667,52.1167,56.03,48,22,5.44,few clouds
Afşin,TR,38.2477,36.914,50.85,50,9,1.34,clear sky
San Javier,ES,37.8063,-0.8374,62.33,65,0,1.01,clear sky
Dori,BF,14.0354,-0.0345,83.16,12,94,10.47,overcast clouds
Kandi,BJ,11.1342,2.9386,79.52,54,59,4.07,broken clouds
Goundam,ML,16.4145,-3.6708,74.86,13,73,10.0,broken clouds
